[
    {
        "Id": 112,
        "Name": "ATLANTA METROPOLITAN STATE COLLEGE",
        "DisplayingName": "GA - ATLANTA METROPOLITAN STATE COLLEGE",
        "IsSelected": false,
        "IsMunicipal": false,
        "Latitude": 33.709843,
        "Longitude": -84.405445,
        "WebLink": "http://WWW.ATLM.EDU",
        "LastUploadTime": "/Date(1622188848630)/",
        "ZipCodes": [
            {
                "Id": 1033,
                "AgencyId": 112,
                "ZipCode": "30310"
            }
        ],
        "DefaultUnmappedIncidentsLatitude": 33.709316,
        "DefaultUnmappedIncidentsLongitude": -84.405364,
        "DefaultRange": 365,
        "DefaultViewType": 0
    },
    {
        "Id": 107,
        "Name": "Augusta University",
        "DisplayingName": "GA - Augusta University",
        "IsSelected": false,
        "IsMunicipal": false,
        "Latitude": 33.476523,
        "Longitude": -81.985012,
        "WebLink": "http://www.augusta.edu/police",
        "LastUploadTime": "/Date(1622181655167)/",
        "ZipCodes": [
            {
                "Id": 1025,
                "AgencyId": 107,
                "ZipCode": "30912"
            },
            {
                "Id": 1026,
                "AgencyId": 107,
                "ZipCode": "30901"
            }
        ],
        "DefaultUnmappedIncidentsLatitude": 33.470682,
        "DefaultUnmappedIncidentsLongitude": -81.990183,
        "DefaultRange": null,
        "DefaultViewType": 0
    },
    {
        "Id": 77,
        "Name": "Baylor University",
        "DisplayingName": "TX - Baylor University",
        "IsSelected": false,
        "IsMunicipal": false,
        "Latitude": 31.546097,
        "Longitude": -97.117453,
        "WebLink": "https://www.baylor.edu/dps/index.php?id=99379",
        "LastUploadTime": "/Date(1622221225190)/",
        "ZipCodes": [
            {
                "Id": 957,
                "AgencyId": 77,
                "ZipCode": ""
            },
            {
                "Id": 958,
                "AgencyId": 77,
                "ZipCode": "76706"
            },
            {
                "Id": 959,
                "AgencyId": 77,
                "ZipCode": "76798"
            },
            {
                "Id": 960,
                "AgencyId": 77,
                "ZipCode": "76701"
            },
            {
                "Id": 961,
                "AgencyId": 77,
                "ZipCode": "76711"
            },
            {
                "Id": 962,
                "AgencyId": 77,
                "ZipCode": "76710"
            },
            {
                "Id": 963,
                "AgencyId": 77,
                "ZipCode": "76704"
            },
            {
                "Id": 964,
                "AgencyId": 77,
                "ZipCode": "76705"
            },
            {
                "Id": 965,
                "AgencyId": 77,
                "ZipCode": "76708"
            },
            {
                "Id": 966,
                "AgencyId": 77,
                "ZipCode": "76707"
            }
        ],
        "DefaultUnmappedIncidentsLatitude": 31.54555,
        "DefaultUnmappedIncidentsLongitude": -97.117362,
        "DefaultRange": 60,
        "DefaultViewType": 1
    },
    {
        "Id": 29,
        "Name": "Boston College",
        "DisplayingName": "MA - Boston College",
        "IsSelected": false,
        "IsMunicipal": false,
        "Latitude": 42.358631,
        "Longitude": -71.056702,
        "WebLink": "",
        "LastUploadTime": null,
        "ZipCodes": [],
        "DefaultUnmappedIncidentsLatitude": 42.358631,
        "DefaultUnmappedIncidentsLongitude": -71.056702,
        "DefaultRange": null,
        "DefaultViewType": 0
    },
    {
        "Id": 32,
        "Name": "Butler University",
        "DisplayingName": "IN - Butler",
        "IsSelected": false,
        "IsMunicipal": false,
        "Latitude": 39.766911,
        "Longitude": -86.149963,
        "WebLink": "",
        "LastUploadTime": "/Date(1403528470070)/",
        "ZipCodes": [
            {
                "Id": 614,
                "AgencyId": 32,
                "ZipCode": "46208"
            }
        ],
        "DefaultUnmappedIncidentsLatitude": 39.766911,
        "DefaultUnmappedIncidentsLongitude": -86.149963,
        "DefaultRange": null,
        "DefaultViewType": 0
    },
    {
        "Id": 54,
        "Name": "Carnegie Mellon University ",
        "DisplayingName": "PA - Carnegie Mellon University",
        "IsSelected": false,
        "IsMunicipal": false,
        "Latitude": 40.44559,
        "Longitude": -79.949239,
        "WebLink": "http://www.cmu.edu/police",
        "LastUploadTime": "/Date(1622181645740)/",
        "ZipCodes": [
            {
                "Id": 771,
                "AgencyId": 54,
                "ZipCode": "15219"
            },
            {
                "Id": 772,
                "AgencyId": 54,
                "ZipCode": "15206"
            },
            {
                "Id": 773,
                "AgencyId": 54,
                "ZipCode": "15224"
            },
            {
                "Id": 774,
                "AgencyId": 54,
                "ZipCode": "15217-1227"
            },
            {
                "Id": 775,
                "AgencyId": 54,
                "ZipCode": "15222"
            },
            {
                "Id": 776,
                "AgencyId": 54,
                "ZipCode": "15217"
            },
            {
                "Id": 777,
                "AgencyId": 54,
                "ZipCode": "15201"
            },
            {
                "Id": 778,
                "AgencyId": 54,
                "ZipCode": "15213"
            },
            {
                "Id": 779,
                "AgencyId": 54,
                "ZipCode": "15212"
            }
        ],
        "DefaultUnmappedIncidentsLatitude": 40.445506,
        "DefaultUnmappedIncidentsLongitude": -79.949205,
        "DefaultRange": null,
        "DefaultViewType": 0
    },
    {
        "Id": 118,
        "Name": "Clark Atlanta University",
        "DisplayingName": "GA - Clark Atlanta University",
        "IsSelected": false,
        "IsMunicipal": false,
        "Latitude": 33.788131,
        "Longitude": -84.396717,
        "WebLink": null,
        "LastUploadTime": null,
        "ZipCodes": [],
        "DefaultUnmappedIncidentsLatitude": null,
        "DefaultUnmappedIncidentsLongitude": null,
        "DefaultRange": 60,
        "DefaultViewType": 0
    },
    {
        "Id": 120,
        "Name": "Clayton State University",
        "DisplayingName": "GA - CSU",
        "IsSelected": false,
        "IsMunicipal": false,
        "Latitude": 33.59461,
        "Longitude": -84.32868,
        "WebLink": null,
        "LastUploadTime": null,
        "ZipCodes": [],
        "DefaultUnmappedIncidentsLatitude": null,
        "DefaultUnmappedIncidentsLongitude": null,
        "DefaultRange": null,
        "DefaultViewType": 0
    },
    {
        "Id": 103,
        "Name": "Columbus State Univeristy",
        "DisplayingName": "GA - Columbus State Univeristy",
        "IsSelected": false,
        "IsMunicipal": false,
        "Latitude": 32.502308,
        "Longitude": -84.941448,
        "WebLink": null,
        "LastUploadTime": "/Date(1622181642227)/",
        "ZipCodes": [
            {
                "Id": 1019,
                "AgencyId": 103,
                "ZipCode": "31907"
            }
        ],
        "DefaultUnmappedIncidentsLatitude": 32.502342,
        "DefaultUnmappedIncidentsLongitude": -84.941483,
        "DefaultRange": 60,
        "DefaultViewType": 1
    },
    {
        "Id": 69,
        "Name": "CONTRA COSTA COMMUNITY COLLEGE DISTRICT",
        "DisplayingName": "CA - CONTRA COSTA COMMUNITY COLLEGE DISTRICT",
        "IsSelected": false,
        "IsMunicipal": false,
        "Latitude": 38.019091,
        "Longitude": -122.135238,
        "WebLink": null,
        "LastUploadTime": "/Date(1622206824337)/",
        "ZipCodes": [
            {
                "Id": 944,
                "AgencyId": 69,
                "ZipCode": "94553"
            },
            {
                "Id": 952,
                "AgencyId": 69,
                "ZipCode": "94523"
            },
            {
                "Id": 953,
                "AgencyId": 69,
                "ZipCode": "94565"
            },
            {
                "Id": 954,
                "AgencyId": 69,
                "ZipCode": "94806"
            }
        ],
        "DefaultUnmappedIncidentsLatitude": 38.019097,
        "DefaultUnmappedIncidentsLongitude": -122.135063,
        "DefaultRange": 5,
        "DefaultViewType": 0
    },
    {
        "Id": 38,
        "Name": "Coppin State University",
        "DisplayingName": "MD - Coppin State University",
        "IsSelected": false,
        "IsMunicipal": false,
        "Latitude": 39.290581,
        "Longitude": -76.609261,
        "WebLink": null,
        "LastUploadTime": "/Date(1622181641000)/",
        "ZipCodes": [
            {
                "Id": 638,
                "AgencyId": 38,
                "ZipCode": "21216"
            },
            {
                "Id": 640,
                "AgencyId": 38,
                "ZipCode": "21217"
            },
            {
                "Id": 1018,
                "AgencyId": 38,
                "ZipCode": "21201"
            }
        ],
        "DefaultUnmappedIncidentsLatitude": 39.311125,
        "DefaultUnmappedIncidentsLongitude": -76.655645,
        "DefaultRange": null,
        "DefaultViewType": 0
    },
    {
        "Id": 56,
        "Name": "Dallas ISD",
        "DisplayingName": "TX - Dallas ISD",
        "IsSelected": false,
        "IsMunicipal": false,
        "Latitude": 32.931682,
        "Longitude": -96.821473,
        "WebLink": null,
        "LastUploadTime": null,
        "ZipCodes": [
            {
                "Id": 785,
                "AgencyId": 56,
                "ZipCode": "75251"
            },
            {
                "Id": 786,
                "AgencyId": 56,
                "ZipCode": "75224"
            },
            {
                "Id": 787,
                "AgencyId": 56,
                "ZipCode": "75180"
            },
            {
                "Id": 788,
                "AgencyId": 56,
                "ZipCode": "75202"
            },
            {
                "Id": 789,
                "AgencyId": 56,
                "ZipCode": "75115"
            },
            {
                "Id": 790,
                "AgencyId": 56,
                "ZipCode": "75201"
            },
            {
                "Id": 791,
                "AgencyId": 56,
                "ZipCode": "75219"
            },
            {
                "Id": 792,
                "AgencyId": 56,
                "ZipCode": "75231"
            },
            {
                "Id": 793,
                "AgencyId": 56,
                "ZipCode": "75217"
            },
            {
                "Id": 794,
                "AgencyId": 56,
                "ZipCode": "75204"
            },
            {
                "Id": 795,
                "AgencyId": 56,
                "ZipCode": "75247"
            },
            {
                "Id": 796,
                "AgencyId": 56,
                "ZipCode": "75159"
            },
            {
                "Id": 797,
                "AgencyId": 56,
                "ZipCode": "75252"
            },
            {
                "Id": 798,
                "AgencyId": 56,
                "ZipCode": "75172"
            },
            {
                "Id": 799,
                "AgencyId": 56,
                "ZipCode": "75240"
            },
            {
                "Id": 800,
                "AgencyId": 56,
                "ZipCode": "75211"
            },
            {
                "Id": 801,
                "AgencyId": 56,
                "ZipCode": "75234"
            },
            {
                "Id": 802,
                "AgencyId": 56,
                "ZipCode": "75235"
            },
            {
                "Id": 803,
                "AgencyId": 56,
                "ZipCode": "75207"
            },
            {
                "Id": 804,
                "AgencyId": 56,
                "ZipCode": "75001"
            },
            {
                "Id": 805,
                "AgencyId": 56,
                "ZipCode": "75212"
            },
            {
                "Id": 806,
                "AgencyId": 56,
                "ZipCode": "75246"
            },
            {
                "Id": 807,
                "AgencyId": 56,
                "ZipCode": "75244"
            },
            {
                "Id": 808,
                "AgencyId": 56,
                "ZipCode": "75215"
            },
            {
                "Id": 809,
                "AgencyId": 56,
                "ZipCode": "75223"
            },
            {
                "Id": 810,
                "AgencyId": 56,
                "ZipCode": "75230"
            },
            {
                "Id": 811,
                "AgencyId": 56,
                "ZipCode": "75208"
            },
            {
                "Id": 812,
                "AgencyId": 56,
                "ZipCode": "75006"
            },
            {
                "Id": 813,
                "AgencyId": 56,
                "ZipCode": "75229"
            },
            {
                "Id": 814,
                "AgencyId": 56,
                "ZipCode": "75227"
            },
            {
                "Id": 815,
                "AgencyId": 56,
                "ZipCode": "75209"
            },
            {
                "Id": 816,
                "AgencyId": 56,
                "ZipCode": "75232"
            },
            {
                "Id": 817,
                "AgencyId": 56,
                "ZipCode": "75203"
            },
            {
                "Id": 818,
                "AgencyId": 56,
                "ZipCode": "75214"
            },
            {
                "Id": 819,
                "AgencyId": 56,
                "ZipCode": "75253"
            },
            {
                "Id": 820,
                "AgencyId": 56,
                "ZipCode": "75228"
            },
            {
                "Id": 821,
                "AgencyId": 56,
                "ZipCode": "75216"
            },
            {
                "Id": 822,
                "AgencyId": 56,
                "ZipCode": "75205"
            },
            {
                "Id": 823,
                "AgencyId": 56,
                "ZipCode": "75218"
            },
            {
                "Id": 824,
                "AgencyId": 56,
                "ZipCode": "75237"
            },
            {
                "Id": 825,
                "AgencyId": 56,
                "ZipCode": "75220"
            },
            {
                "Id": 826,
                "AgencyId": 56,
                "ZipCode": "75254"
            },
            {
                "Id": 827,
                "AgencyId": 56,
                "ZipCode": "75206"
            },
            {
                "Id": 828,
                "AgencyId": 56,
                "ZipCode": "75141"
            },
            {
                "Id": 829,
                "AgencyId": 56,
                "ZipCode": "75210"
            },
            {
                "Id": 830,
                "AgencyId": 56,
                "ZipCode": "75241"
            },
            {
                "Id": 831,
                "AgencyId": 56,
                "ZipCode": "75238"
            },
            {
                "Id": 832,
                "AgencyId": 56,
                "ZipCode": "75233"
            }
        ],
        "DefaultUnmappedIncidentsLatitude": 32.931682,
        "DefaultUnmappedIncidentsLongitude": -96.821473,
        "DefaultRange": null,
        "DefaultViewType": 0
    },
    {
        "Id": 55,
        "Name": "Dickinson College",
        "DisplayingName": "PA - Dickinson College",
        "IsSelected": false,
        "IsMunicipal": false,
        "Latitude": 40.201024,
        "Longitude": -77.200274,
        "WebLink": "http://www.dickinson.edu/homepage/70/campus_safety",
        "LastUploadTime": "/Date(1622181653873)/",
        "ZipCodes": [
            {
                "Id": 780,
                "AgencyId": 55,
                "ZipCode": "17007"
            },
            {
                "Id": 781,
                "AgencyId": 55,
                "ZipCode": "17013"
            },
            {
                "Id": 782,
                "AgencyId": 55,
                "ZipCode": "17065"
            },
            {
                "Id": 783,
                "AgencyId": 55,
                "ZipCode": "17015"
            },
            {
                "Id": 784,
                "AgencyId": 55,
                "ZipCode": "17040"
            }
        ],
        "DefaultUnmappedIncidentsLatitude": 40.201024,
        "DefaultUnmappedIncidentsLongitude": -77.200274,
        "DefaultRange": null,
        "DefaultViewType": 0
    },
    {
        "Id": 20,
        "Name": "Gallaudet University",
        "DisplayingName": "DC - Gallaudet University",
        "IsSelected": false,
        "IsMunicipal": false,
        "Latitude": 38.890369,
        "Longitude": -77.03196,
        "WebLink": null,
        "LastUploadTime": "/Date(1622196013347)/",
        "ZipCodes": [
            {
                "Id": 556,
                "AgencyId": 20,
                "ZipCode": "20002"
            }
        ],
        "DefaultUnmappedIncidentsLatitude": 38.890369,
        "DefaultUnmappedIncidentsLongitude": -77.03196,
        "DefaultRange": null,
        "DefaultViewType": 0
    },
    {
        "Id": 35,
        "Name": "Georgia State University",
        "DisplayingName": "GA - Georgia State University",
        "IsSelected": false,
        "IsMunicipal": false,
        "Latitude": 33.74831,
        "Longitude": -84.391113,
        "WebLink": "http://safety.gsu.edu/police",
        "LastUploadTime": "/Date(1622196003460)/",
        "ZipCodes": [
            {
                "Id": 621,
                "AgencyId": 35,
                "ZipCode": "30022"
            },
            {
                "Id": 622,
                "AgencyId": 35,
                "ZipCode": "30325"
            },
            {
                "Id": 623,
                "AgencyId": 35,
                "ZipCode": "30083"
            },
            {
                "Id": 624,
                "AgencyId": 35,
                "ZipCode": "30319"
            },
            {
                "Id": 625,
                "AgencyId": 35,
                "ZipCode": "30308"
            },
            {
                "Id": 626,
                "AgencyId": 35,
                "ZipCode": "30663"
            },
            {
                "Id": 627,
                "AgencyId": 35,
                "ZipCode": "30303"
            },
            {
                "Id": 628,
                "AgencyId": 35,
                "ZipCode": "30312"
            }
        ],
        "DefaultUnmappedIncidentsLatitude": 33.74831,
        "DefaultUnmappedIncidentsLongitude": -84.391113,
        "DefaultRange": 60,
        "DefaultViewType": 0
    },
    {
        "Id": 111,
        "Name": "High Point University",
        "DisplayingName": "NC - High Point University",
        "IsSelected": false,
        "IsMunicipal": false,
        "Latitude": 35.985248,
        "Longitude": -80.00113,
        "WebLink": null,
        "LastUploadTime": "/Date(1622199605633)/",
        "ZipCodes": [
            {
                "Id": 1032,
                "AgencyId": 111,
                "ZipCode": "27268"
            },
            {
                "Id": 1034,
                "AgencyId": 111,
                "ZipCode": "27265"
            }
        ],
        "DefaultUnmappedIncidentsLatitude": 35.971884,
        "DefaultUnmappedIncidentsLongitude": -79.993236,
        "DefaultRange": 1,
        "DefaultViewType": 0
    },
    {
        "Id": 33,
        "Name": "Howard University",
        "DisplayingName": "DC - Howard University",
        "IsSelected": false,
        "IsMunicipal": false,
        "Latitude": 38.904537,
        "Longitude": -77.01664,
        "WebLink": null,
        "LastUploadTime": "/Date(1586412009717)/",
        "ZipCodes": [
            {
                "Id": 615,
                "AgencyId": 33,
                "ZipCode": "20059"
            },
            {
                "Id": 616,
                "AgencyId": 33,
                "ZipCode": "20705"
            }
        ],
        "DefaultUnmappedIncidentsLatitude": 38.904537,
        "DefaultUnmappedIncidentsLongitude": -77.01664,
        "DefaultRange": null,
        "DefaultViewType": 0
    },
    {
        "Id": 28,
        "Name": "Ithaca College",
        "DisplayingName": "NY - Public Safety",
        "IsSelected": false,
        "IsMunicipal": false,
        "Latitude": 42.419935,
        "Longitude": -76.496964,
        "WebLink": "http://www.ithaca.edu/safety",
        "LastUploadTime": "/Date(1622199658583)/",
        "ZipCodes": [
            {
                "Id": 607,
                "AgencyId": 28,
                "ZipCode": "14850"
            }
        ],
        "DefaultUnmappedIncidentsLatitude": 42.407639,
        "DefaultUnmappedIncidentsLongitude": -76.503029,
        "DefaultRange": null,
        "DefaultViewType": 0
    },
    {
        "Id": 87,
        "Name": "IUPUI",
        "DisplayingName": "IN - IUPUI",
        "IsSelected": false,
        "IsMunicipal": false,
        "Latitude": 0.0,
        "Longitude": 0.0,
        "WebLink": "http://www.police.IUPUI.edu",
        "LastUploadTime": "/Date(1593442802240)/",
        "ZipCodes": [
            {
                "Id": 990,
                "AgencyId": 87,
                "ZipCode": "46202"
            }
        ],
        "DefaultUnmappedIncidentsLatitude": null,
        "DefaultUnmappedIncidentsLongitude": null,
        "DefaultRange": 60,
        "DefaultViewType": 1
    },
    {
        "Id": 115,
        "Name": "Johns Hopkins University",
        "DisplayingName": "MD - Johns Hopkins University",
        "IsSelected": false,
        "IsMunicipal": false,
        "Latitude": 39.668994,
        "Longitude": -76.379405,
        "WebLink": null,
        "LastUploadTime": null,
        "ZipCodes": [],
        "DefaultUnmappedIncidentsLatitude": null,
        "DefaultUnmappedIncidentsLongitude": null,
        "DefaultRange": null,
        "DefaultViewType": 0
    },
    {
        "Id": 59,
        "Name": "JOHNSON & WALES UNIVERSITY - PROVIDENCE",
        "DisplayingName": "RI - Johnson & Wales",
        "IsSelected": false,
        "IsMunicipal": false,
        "Latitude": 41.823989,
        "Longitude": -71.412834,
        "WebLink": "https://www.jwu.edu/providence/safety/",
        "LastUploadTime": "/Date(1576051225883)/",
        "ZipCodes": [
            {
                "Id": 848,
                "AgencyId": 59,
                "ZipCode": "02920"
            },
            {
                "Id": 849,
                "AgencyId": 59,
                "ZipCode": "02901"
            },
            {
                "Id": 850,
                "AgencyId": 59,
                "ZipCode": "02771"
            },
            {
                "Id": 851,
                "AgencyId": 59,
                "ZipCode": "02886"
            },
            {
                "Id": 852,
                "AgencyId": 59,
                "ZipCode": "02857"
            },
            {
                "Id": 853,
                "AgencyId": 59,
                "ZipCode": "02905"
            },
            {
                "Id": 854,
                "AgencyId": 59,
                "ZipCode": "02906"
            },
            {
                "Id": 855,
                "AgencyId": 59,
                "ZipCode": "02908"
            },
            {
                "Id": 856,
                "AgencyId": 59,
                "ZipCode": "02909"
            },
            {
                "Id": 857,
                "AgencyId": 59,
                "ZipCode": "02904"
            },
            {
                "Id": 858,
                "AgencyId": 59,
                "ZipCode": "02903"
            },
            {
                "Id": 859,
                "AgencyId": 59,
                "ZipCode": "02910"
            },
            {
                "Id": 860,
                "AgencyId": 59,
                "ZipCode": "02914"
            }
        ],
        "DefaultUnmappedIncidentsLatitude": 41.823989,
        "DefaultUnmappedIncidentsLongitude": -71.412834,
        "DefaultRange": null,
        "DefaultViewType": 0
    },
    {
        "Id": 18,
        "Name": "Katy Independent School District, Katy, TX",
        "DisplayingName": "TX - Katy Independent School District",
        "IsSelected": false,
        "IsMunicipal": false,
        "Latitude": 29.78772,
        "Longitude": -95.82333,
        "WebLink": "http://www.katyisd.org/dept/police",
        "LastUploadTime": "/Date(1622185252313)/",
        "ZipCodes": [
            {
                "Id": 541,
                "AgencyId": 18,
                "ZipCode": "77002"
            },
            {
                "Id": 542,
                "AgencyId": 18,
                "ZipCode": "77079"
            },
            {
                "Id": 543,
                "AgencyId": 18,
                "ZipCode": "77493"
            },
            {
                "Id": 544,
                "AgencyId": 18,
                "ZipCode": "77449"
            },
            {
                "Id": 545,
                "AgencyId": 18,
                "ZipCode": "77494"
            },
            {
                "Id": 546,
                "AgencyId": 18,
                "ZipCode": "77009"
            },
            {
                "Id": 547,
                "AgencyId": 18,
                "ZipCode": "77441"
            },
            {
                "Id": 548,
                "AgencyId": 18,
                "ZipCode": "77081-4004"
            },
            {
                "Id": 549,
                "AgencyId": 18,
                "ZipCode": "77450"
            },
            {
                "Id": 550,
                "AgencyId": 18,
                "ZipCode": "77084"
            },
            {
                "Id": 551,
                "AgencyId": 18,
                "ZipCode": "77002-1923"
            }
        ],
        "DefaultUnmappedIncidentsLatitude": 29.78772,
        "DefaultUnmappedIncidentsLongitude": -95.82333,
        "DefaultRange": null,
        "DefaultViewType": 0
    },
    {
        "Id": 104,
        "Name": "Kennesaw State University",
        "DisplayingName": "GA - Kennesaw State University",
        "IsSelected": false,
        "IsMunicipal": false,
        "Latitude": 34.023433,
        "Longitude": -84.615489,
        "WebLink": null,
        "LastUploadTime": "/Date(1622199647057)/",
        "ZipCodes": [
            {
                "Id": 1020,
                "AgencyId": 104,
                "ZipCode": "30144"
            }
        ],
        "DefaultUnmappedIncidentsLatitude": null,
        "DefaultUnmappedIncidentsLongitude": null,
        "DefaultRange": null,
        "DefaultViewType": 0
    },
    {
        "Id": 83,
        "Name": "La Salle University",
        "DisplayingName": "PA - La Salle University",
        "IsSelected": false,
        "IsMunicipal": false,
        "Latitude": 40.039058,
        "Longitude": -75.153854,
        "WebLink": "http://www.lasalle.edu/public-safety/",
        "LastUploadTime": "/Date(1622199617487)/",
        "ZipCodes": [
            {
                "Id": 976,
                "AgencyId": 83,
                "ZipCode": "19138"
            },
            {
                "Id": 977,
                "AgencyId": 83,
                "ZipCode": "19126"
            },
            {
                "Id": 978,
                "AgencyId": 83,
                "ZipCode": "19120"
            },
            {
                "Id": 979,
                "AgencyId": 83,
                "ZipCode": "19141"
            },
            {
                "Id": 980,
                "AgencyId": 83,
                "ZipCode": "19144"
            },
            {
                "Id": 981,
                "AgencyId": 83,
                "ZipCode": "19140"
            },
            {
                "Id": 982,
                "AgencyId": 83,
                "ZipCode": "19119"
            },
            {
                "Id": 983,
                "AgencyId": 83,
                "ZipCode": "19128"
            },
            {
                "Id": 984,
                "AgencyId": 83,
                "ZipCode": "19129"
            },
            {
                "Id": 985,
                "AgencyId": 83,
                "ZipCode": "19124"
            },
            {
                "Id": 986,
                "AgencyId": 83,
                "ZipCode": "19027"
            },
            {
                "Id": 987,
                "AgencyId": 83,
                "ZipCode": "19150"
            },
            {
                "Id": 988,
                "AgencyId": 83,
                "ZipCode": "19012"
            }
        ],
        "DefaultUnmappedIncidentsLatitude": 40.04222,
        "DefaultUnmappedIncidentsLongitude": -75.158832,
        "DefaultRange": 60,
        "DefaultViewType": 0
    },
    {
        "Id": 101,
        "Name": "Midwestern State",
        "DisplayingName": "TX - Midwestern State",
        "IsSelected": false,
        "IsMunicipal": false,
        "Latitude": 33.869782,
        "Longitude": -98.526724,
        "WebLink": null,
        "LastUploadTime": "/Date(1622196054420)/",
        "ZipCodes": [],
        "DefaultUnmappedIncidentsLatitude": 33.876263,
        "DefaultUnmappedIncidentsLongitude": -98.519736,
        "DefaultRange": 60,
        "DefaultViewType": 0
    },
    {
        "Id": 49,
        "Name": "Mississippi State University",
        "DisplayingName": "MS - Mississippi State University",
        "IsSelected": false,
        "IsMunicipal": false,
        "Latitude": 33.45514,
        "Longitude": -88.792468,
        "WebLink": "http://www.police.msstate.edu/",
        "LastUploadTime": "/Date(1622185250617)/",
        "ZipCodes": [
            {
                "Id": 733,
                "AgencyId": 49,
                "ZipCode": "39762"
            },
            {
                "Id": 734,
                "AgencyId": 49,
                "ZipCode": "39769"
            },
            {
                "Id": 735,
                "AgencyId": 49,
                "ZipCode": "39759"
            },
            {
                "Id": 736,
                "AgencyId": 49,
                "ZipCode": "39301"
            },
            {
                "Id": 737,
                "AgencyId": 49,
                "ZipCode": "39307"
            }
        ],
        "DefaultUnmappedIncidentsLatitude": 33.45514,
        "DefaultUnmappedIncidentsLongitude": -88.792468,
        "DefaultRange": null,
        "DefaultViewType": 0
    },
    {
        "Id": 30,
        "Name": "Orland Police Department",
        "DisplayingName": "CA - Orland PD",
        "IsSelected": false,
        "IsMunicipal": false,
        "Latitude": 39.747391,
        "Longitude": -122.194771,
        "WebLink": null,
        "LastUploadTime": "/Date(1622192440760)/",
        "ZipCodes": [
            {
                "Id": 1013,
                "AgencyId": 30,
                "ZipCode": "95963"
            }
        ],
        "DefaultUnmappedIncidentsLatitude": 39.747391,
        "DefaultUnmappedIncidentsLongitude": -122.194771,
        "DefaultRange": null,
        "DefaultViewType": 0
    },
    {
        "Id": 11,
        "Name": "Oxford",
        "DisplayingName": "MS - City of Oxford",
        "IsSelected": false,
        "IsMunicipal": true,
        "Latitude": 34.364015,
        "Longitude": -89.518775,
        "WebLink": "http://www.oxfordpolice.net",
        "LastUploadTime": "/Date(1622199616517)/",
        "ZipCodes": [
            {
                "Id": 461,
                "AgencyId": 11,
                "ZipCode": "38655"
            },
            {
                "Id": 936,
                "AgencyId": 11,
                "ZipCode": "38677"
            }
        ],
        "DefaultUnmappedIncidentsLatitude": 34.375927,
        "DefaultUnmappedIncidentsLongitude": -89.527333,
        "DefaultRange": null,
        "DefaultViewType": 0
    },
    {
        "Id": 63,
        "Name": "Pikes Peak CC",
        "DisplayingName": "CO - Pikes Peak CC",
        "IsSelected": false,
        "IsMunicipal": false,
        "Latitude": 38.764623,
        "Longitude": -104.786204,
        "WebLink": "http://www.ppcc.edu",
        "LastUploadTime": "/Date(1622206839377)/",
        "ZipCodes": [
            {
                "Id": 933,
                "AgencyId": 63,
                "ZipCode": "80906"
            },
            {
                "Id": 934,
                "AgencyId": 63,
                "ZipCode": "80921"
            },
            {
                "Id": 935,
                "AgencyId": 63,
                "ZipCode": "80903"
            }
        ],
        "DefaultUnmappedIncidentsLatitude": 38.762022,
        "DefaultUnmappedIncidentsLongitude": -104.780145,
        "DefaultRange": null,
        "DefaultViewType": 1
    },
    {
        "Id": 92,
        "Name": "Rensselaer Polytechnic Institute",
        "DisplayingName": "NY - Rensselaer Polytechnic Institute",
        "IsSelected": false,
        "IsMunicipal": false,
        "Latitude": 42.730867,
        "Longitude": -73.681718,
        "WebLink": null,
        "LastUploadTime": "/Date(1622199629173)/",
        "ZipCodes": [
            {
                "Id": 1002,
                "AgencyId": 92,
                "ZipCode": "12180"
            }
        ],
        "DefaultUnmappedIncidentsLatitude": 42.710238,
        "DefaultUnmappedIncidentsLongitude": -73.588135,
        "DefaultRange": null,
        "DefaultViewType": 1
    },
    {
        "Id": 94,
        "Name": "Saddleback College Police Department",
        "DisplayingName": "CA - Saddleback College Police Department",
        "IsSelected": false,
        "IsMunicipal": false,
        "Latitude": 33.550515,
        "Longitude": -117.665303,
        "WebLink": null,
        "LastUploadTime": "/Date(1608544808507)/",
        "ZipCodes": [
            {
                "Id": 1012,
                "AgencyId": 94,
                "ZipCode": "92692"
            }
        ],
        "DefaultUnmappedIncidentsLatitude": 33.54867,
        "DefaultUnmappedIncidentsLongitude": -117.662282,
        "DefaultRange": 90,
        "DefaultViewType": 1
    },
    {
        "Id": 73,
        "Name": "Sales Demo",
        "DisplayingName": "MS - Sales Demo",
        "IsSelected": false,
        "IsMunicipal": true,
        "Latitude": 34.364798,
        "Longitude": -89.571874,
        "WebLink": null,
        "LastUploadTime": "/Date(1485809611923)/",
        "ZipCodes": [
            {
                "Id": 949,
                "AgencyId": 73,
                "ZipCode": "38655"
            }
        ],
        "DefaultUnmappedIncidentsLatitude": 34.366075,
        "DefaultUnmappedIncidentsLongitude": -89.537394,
        "DefaultRange": null,
        "DefaultViewType": 0
    },
    {
        "Id": 90,
        "Name": "San Jacinto College District",
        "DisplayingName": "TX - San Jacinto College District",
        "IsSelected": false,
        "IsMunicipal": false,
        "Latitude": 29.660352,
        "Longitude": -95.115929,
        "WebLink": null,
        "LastUploadTime": "/Date(1622185210257)/",
        "ZipCodes": [
            {
                "Id": 996,
                "AgencyId": 90,
                "ZipCode": "77505"
            },
            {
                "Id": 997,
                "AgencyId": 90,
                "ZipCode": "77504"
            },
            {
                "Id": 998,
                "AgencyId": 90,
                "ZipCode": "77089"
            },
            {
                "Id": 999,
                "AgencyId": 90,
                "ZipCode": "77049"
            },
            {
                "Id": 1000,
                "AgencyId": 90,
                "ZipCode": "77571"
            },
            {
                "Id": 1041,
                "AgencyId": 90,
                "ZipCode": "77044"
            }
        ],
        "DefaultUnmappedIncidentsLatitude": 29.653632,
        "DefaultUnmappedIncidentsLongitude": -95.111762,
        "DefaultRange": 7,
        "DefaultViewType": 0
    },
    {
        "Id": 75,
        "Name": "San Jose Evergreen CC",
        "DisplayingName": "CA - San Jose Evergreen CC",
        "IsSelected": false,
        "IsMunicipal": false,
        "Latitude": 37.338208,
        "Longitude": -121.886328,
        "WebLink": null,
        "LastUploadTime": "/Date(1608572296277)/",
        "ZipCodes": [
            {
                "Id": 951,
                "AgencyId": 75,
                "ZipCode": "95135"
            }
        ],
        "DefaultUnmappedIncidentsLatitude": null,
        "DefaultUnmappedIncidentsLongitude": null,
        "DefaultRange": null,
        "DefaultViewType": 1
    },
    {
        "Id": 106,
        "Name": "San Mateo CCD",
        "DisplayingName": "CA - San Mateo CCD",
        "IsSelected": false,
        "IsMunicipal": false,
        "Latitude": 37.535051,
        "Longitude": -122.335123,
        "WebLink": "http://www.smccd.edu",
        "LastUploadTime": "/Date(1622192437097)/",
        "ZipCodes": [
            {
                "Id": 1022,
                "AgencyId": 106,
                "ZipCode": "94402"
            },
            {
                "Id": 1023,
                "AgencyId": 106,
                "ZipCode": "94061"
            },
            {
                "Id": 1024,
                "AgencyId": 106,
                "ZipCode": "94066"
            }
        ],
        "DefaultUnmappedIncidentsLatitude": null,
        "DefaultUnmappedIncidentsLongitude": null,
        "DefaultRange": 60,
        "DefaultViewType": 1
    },
    {
        "Id": 61,
        "Name": "Sierra Joint Community College District",
        "DisplayingName": "CA - Sierra College",
        "IsSelected": false,
        "IsMunicipal": true,
        "Latitude": 38.78878,
        "Longitude": -121.20614,
        "WebLink": "http://www.sierracollege.edu",
        "LastUploadTime": "/Date(1621339219273)/",
        "ZipCodes": [
            {
                "Id": 867,
                "AgencyId": 61,
                "ZipCode": "95661"
            },
            {
                "Id": 868,
                "AgencyId": 61,
                "ZipCode": "95945"
            },
            {
                "Id": 869,
                "AgencyId": 61,
                "ZipCode": "95677"
            },
            {
                "Id": 870,
                "AgencyId": 61,
                "ZipCode": "95667"
            },
            {
                "Id": 871,
                "AgencyId": 61,
                "ZipCode": "96161"
            }
        ],
        "DefaultUnmappedIncidentsLatitude": 38.789701,
        "DefaultUnmappedIncidentsLongitude": -121.212158,
        "DefaultRange": 60,
        "DefaultViewType": 1
    },
    {
        "Id": 37,
        "Name": "Simmons College",
        "DisplayingName": "MA - Simmons College",
        "IsSelected": false,
        "IsMunicipal": false,
        "Latitude": 42.358631,
        "Longitude": -71.056702,
        "WebLink": "",
        "LastUploadTime": null,
        "ZipCodes": [],
        "DefaultUnmappedIncidentsLatitude": 42.358631,
        "DefaultUnmappedIncidentsLongitude": -71.056702,
        "DefaultRange": null,
        "DefaultViewType": 0
    },
    {
        "Id": 12,
        "Name": "South Pasadena",
        "DisplayingName": "CA - City of South Pasadena",
        "IsSelected": false,
        "IsMunicipal": true,
        "Latitude": 34.115805,
        "Longitude": -118.15213,
        "WebLink": "http://ci.south-pasadena.ca.us/police/index.html",
        "LastUploadTime": "/Date(1446737416963)/",
        "ZipCodes": [
            {
                "Id": 462,
                "AgencyId": 12,
                "ZipCode": "91020"
            },
            {
                "Id": 463,
                "AgencyId": 12,
                "ZipCode": "91101"
            },
            {
                "Id": 464,
                "AgencyId": 12,
                "ZipCode": "93721"
            },
            {
                "Id": 465,
                "AgencyId": 12,
                "ZipCode": "90031"
            },
            {
                "Id": 466,
                "AgencyId": 12,
                "ZipCode": "91103"
            },
            {
                "Id": 467,
                "AgencyId": 12,
                "ZipCode": "91803"
            },
            {
                "Id": 468,
                "AgencyId": 12,
                "ZipCode": "90012"
            },
            {
                "Id": 469,
                "AgencyId": 12,
                "ZipCode": "90604"
            },
            {
                "Id": 470,
                "AgencyId": 12,
                "ZipCode": "91106"
            },
            {
                "Id": 471,
                "AgencyId": 12,
                "ZipCode": "91206"
            },
            {
                "Id": 472,
                "AgencyId": 12,
                "ZipCode": "91105"
            },
            {
                "Id": 473,
                "AgencyId": 12,
                "ZipCode": "91060"
            },
            {
                "Id": 474,
                "AgencyId": 12,
                "ZipCode": "91107"
            },
            {
                "Id": 475,
                "AgencyId": 12,
                "ZipCode": "91030"
            },
            {
                "Id": 476,
                "AgencyId": 12,
                "ZipCode": "91001"
            },
            {
                "Id": 477,
                "AgencyId": 12,
                "ZipCode": "90032"
            },
            {
                "Id": 478,
                "AgencyId": 12,
                "ZipCode": "91702"
            },
            {
                "Id": 479,
                "AgencyId": 12,
                "ZipCode": "91706"
            },
            {
                "Id": 480,
                "AgencyId": 12,
                "ZipCode": "91108"
            },
            {
                "Id": 481,
                "AgencyId": 12,
                "ZipCode": "91776"
            },
            {
                "Id": 482,
                "AgencyId": 12,
                "ZipCode": "90103"
            },
            {
                "Id": 483,
                "AgencyId": 12,
                "ZipCode": "91010"
            },
            {
                "Id": 484,
                "AgencyId": 12,
                "ZipCode": "91801"
            },
            {
                "Id": 485,
                "AgencyId": 12,
                "ZipCode": "90057"
            },
            {
                "Id": 486,
                "AgencyId": 12,
                "ZipCode": "91007"
            }
        ],
        "DefaultUnmappedIncidentsLatitude": 34.115805,
        "DefaultUnmappedIncidentsLongitude": -118.15213,
        "DefaultRange": null,
        "DefaultViewType": 0
    },
    {
        "Id": 110,
        "Name": "Spring ISD",
        "DisplayingName": "TX - Spring ISD",
        "IsSelected": false,
        "IsMunicipal": false,
        "Latitude": 30.009682,
        "Longitude": -95.447766,
        "WebLink": null,
        "LastUploadTime": "/Date(1622199626190)/",
        "ZipCodes": [
            {
                "Id": 1027,
                "AgencyId": 110,
                "ZipCode": "77373"
            },
            {
                "Id": 1028,
                "AgencyId": 110,
                "ZipCode": "77073"
            },
            {
                "Id": 1029,
                "AgencyId": 110,
                "ZipCode": "77090"
            },
            {
                "Id": 1030,
                "AgencyId": 110,
                "ZipCode": "77014"
            },
            {
                "Id": 1031,
                "AgencyId": 110,
                "ZipCode": "77067"
            }
        ],
        "DefaultUnmappedIncidentsLatitude": 38.0,
        "DefaultUnmappedIncidentsLongitude": -97.0,
        "DefaultRange": null,
        "DefaultViewType": 0
    },
    {
        "Id": 79,
        "Name": "Springfield College",
        "DisplayingName": "MA - Springfield",
        "IsSelected": false,
        "IsMunicipal": false,
        "Latitude": 42.101343,
        "Longitude": -72.561448,
        "WebLink": "http://springfield.edu/department-of-public-safety",
        "LastUploadTime": "/Date(1622188806303)/",
        "ZipCodes": [
            {
                "Id": 971,
                "AgencyId": 79,
                "ZipCode": "01109"
            }
        ],
        "DefaultUnmappedIncidentsLatitude": 38.0,
        "DefaultUnmappedIncidentsLongitude": -97.0,
        "DefaultRange": 60,
        "DefaultViewType": 0
    },
    {
        "Id": 113,
        "Name": "Stephen Test",
        "DisplayingName": "FL - Stephen Test",
        "IsSelected": false,
        "IsMunicipal": false,
        "Latitude": 30.421309,
        "Longitude": -87.216914,
        "WebLink": null,
        "LastUploadTime": "/Date(1593092059093)/",
        "ZipCodes": [
            {
                "Id": 1038,
                "AgencyId": 113,
                "ZipCode": "32533"
            }
        ],
        "DefaultUnmappedIncidentsLatitude": 30.420025,
        "DefaultUnmappedIncidentsLongitude": -87.219568,
        "DefaultRange": null,
        "DefaultViewType": 0
    },
    {
        "Id": 23,
        "Name": "Stockton Unified School District",
        "DisplayingName": "CA - Stockton Unified School District Police",
        "IsSelected": false,
        "IsMunicipal": false,
        "Latitude": 37.95367,
        "Longitude": -121.290749,
        "WebLink": "http://www.stocktonschoolpolice.org",
        "LastUploadTime": "/Date(1568919608807)/",
        "ZipCodes": [
            {
                "Id": 585,
                "AgencyId": 23,
                "ZipCode": "95203"
            },
            {
                "Id": 586,
                "AgencyId": 23,
                "ZipCode": "95204"
            },
            {
                "Id": 587,
                "AgencyId": 23,
                "ZipCode": "95234"
            },
            {
                "Id": 588,
                "AgencyId": 23,
                "ZipCode": "95205"
            },
            {
                "Id": 589,
                "AgencyId": 23,
                "ZipCode": "95206"
            },
            {
                "Id": 590,
                "AgencyId": 23,
                "ZipCode": "95212"
            },
            {
                "Id": 591,
                "AgencyId": 23,
                "ZipCode": "95209"
            },
            {
                "Id": 592,
                "AgencyId": 23,
                "ZipCode": "95210"
            },
            {
                "Id": 593,
                "AgencyId": 23,
                "ZipCode": "95202"
            },
            {
                "Id": 594,
                "AgencyId": 23,
                "ZipCode": "95231"
            },
            {
                "Id": 595,
                "AgencyId": 23,
                "ZipCode": "95215"
            },
            {
                "Id": 596,
                "AgencyId": 23,
                "ZipCode": "95201"
            },
            {
                "Id": 597,
                "AgencyId": 23,
                "ZipCode": "95207"
            }
        ],
        "DefaultUnmappedIncidentsLatitude": 37.95367,
        "DefaultUnmappedIncidentsLongitude": -121.290749,
        "DefaultRange": null,
        "DefaultViewType": 0
    },
    {
        "Id": 48,
        "Name": "Sugar Creek Police Department",
        "DisplayingName": "MO - Sugar Creek Police Department",
        "IsSelected": false,
        "IsMunicipal": true,
        "Latitude": 39.119034,
        "Longitude": -94.445379,
        "WebLink": null,
        "LastUploadTime": "/Date(1601967610413)/",
        "ZipCodes": [
            {
                "Id": 727,
                "AgencyId": 48,
                "ZipCode": "64058"
            },
            {
                "Id": 728,
                "AgencyId": 48,
                "ZipCode": "64054"
            },
            {
                "Id": 729,
                "AgencyId": 48,
                "ZipCode": "64056"
            },
            {
                "Id": 730,
                "AgencyId": 48,
                "ZipCode": "63054"
            },
            {
                "Id": 731,
                "AgencyId": 48,
                "ZipCode": "00000-0000"
            },
            {
                "Id": 732,
                "AgencyId": 48,
                "ZipCode": "64050"
            }
        ],
        "DefaultUnmappedIncidentsLatitude": 39.119034,
        "DefaultUnmappedIncidentsLongitude": -94.445379,
        "DefaultRange": null,
        "DefaultViewType": 1
    },
    {
        "Id": 45,
        "Name": "TestAgency",
        "DisplayingName": "MS - TestAgency",
        "IsSelected": false,
        "IsMunicipal": false,
        "Latitude": 34.374455,
        "Longitude": -89.526907,
        "WebLink": null,
        "LastUploadTime": null,
        "ZipCodes": [],
        "DefaultUnmappedIncidentsLatitude": 34.374455,
        "DefaultUnmappedIncidentsLongitude": -89.526907,
        "DefaultRange": null,
        "DefaultViewType": 0
    },
    {
        "Id": 108,
        "Name": "Texas Christian University",
        "DisplayingName": "TX - TCU",
        "IsSelected": false,
        "IsMunicipal": false,
        "Latitude": 32.705722,
        "Longitude": -97.357133,
        "WebLink": null,
        "LastUploadTime": null,
        "ZipCodes": [],
        "DefaultUnmappedIncidentsLatitude": null,
        "DefaultUnmappedIncidentsLongitude": null,
        "DefaultRange": null,
        "DefaultViewType": 0
    },
    {
        "Id": 53,
        "Name": "Texas Tech University",
        "DisplayingName": "TX - Texas Tech University",
        "IsSelected": false,
        "IsMunicipal": false,
        "Latitude": 33.591654,
        "Longitude": -101.879787,
        "WebLink": "http://www.depts.ttu.edu/ttpd",
        "LastUploadTime": "/Date(1622232035773)/",
        "ZipCodes": [
            {
                "Id": 762,
                "AgencyId": 53,
                "ZipCode": "79409"
            },
            {
                "Id": 763,
                "AgencyId": 53,
                "ZipCode": "79406"
            },
            {
                "Id": 768,
                "AgencyId": 53,
                "ZipCode": "79415"
            }
        ],
        "DefaultUnmappedIncidentsLatitude": 33.584327,
        "DefaultUnmappedIncidentsLongitude": -101.874633,
        "DefaultRange": 14,
        "DefaultViewType": 0
    },
    {
        "Id": 95,
        "Name": "Town of Kearny",
        "DisplayingName": "AZ - Town of Kearny",
        "IsSelected": false,
        "IsMunicipal": false,
        "Latitude": 33.059287,
        "Longitude": -110.906283,
        "WebLink": null,
        "LastUploadTime": null,
        "ZipCodes": [
            {
                "Id": 1009,
                "AgencyId": 95,
                "ZipCode": "85137"
            }
        ],
        "DefaultUnmappedIncidentsLatitude": null,
        "DefaultUnmappedIncidentsLongitude": null,
        "DefaultRange": null,
        "DefaultViewType": 0
    },
    {
        "Id": 126,
        "Name": "University of Alaska",
        "DisplayingName": "AK - University of Alaska",
        "IsSelected": false,
        "IsMunicipal": false,
        "Latitude": 61.190787,
        "Longitude": -149.824427,
        "WebLink": null,
        "LastUploadTime": "/Date(1622208647020)/",
        "ZipCodes": [
            {
                "Id": 1050,
                "AgencyId": 126,
                "ZipCode": "99058"
            },
            {
                "Id": 1051,
                "AgencyId": 126,
                "ZipCode": "99501"
            },
            {
                "Id": 1052,
                "AgencyId": 126,
                "ZipCode": "99502"
            },
            {
                "Id": 1053,
                "AgencyId": 126,
                "ZipCode": "99503"
            },
            {
                "Id": 1054,
                "AgencyId": 126,
                "ZipCode": "99504"
            },
            {
                "Id": 1055,
                "AgencyId": 126,
                "ZipCode": "99507"
            },
            {
                "Id": 1056,
                "AgencyId": 126,
                "ZipCode": "99508"
            },
            {
                "Id": 1057,
                "AgencyId": 126,
                "ZipCode": "99513"
            },
            {
                "Id": 1058,
                "AgencyId": 126,
                "ZipCode": "99515"
            },
            {
                "Id": 1059,
                "AgencyId": 126,
                "ZipCode": "99517"
            },
            {
                "Id": 1060,
                "AgencyId": 126,
                "ZipCode": "99567"
            },
            {
                "Id": 1061,
                "AgencyId": 126,
                "ZipCode": "99603"
            },
            {
                "Id": 1062,
                "AgencyId": 126,
                "ZipCode": "99615"
            },
            {
                "Id": 1063,
                "AgencyId": 126,
                "ZipCode": "99645"
            },
            {
                "Id": 1064,
                "AgencyId": 126,
                "ZipCode": "99669"
            },
            {
                "Id": 1065,
                "AgencyId": 126,
                "ZipCode": "99696"
            }
        ],
        "DefaultUnmappedIncidentsLatitude": 61.190647,
        "DefaultUnmappedIncidentsLongitude": -149.823769,
        "DefaultRange": 60,
        "DefaultViewType": 0
    },
    {
        "Id": 27,
        "Name": "University of Arkansas - Fort Smith",
        "DisplayingName": "AR - University of Arkansas - Fort Smith",
        "IsSelected": false,
        "IsMunicipal": false,
        "Latitude": 35.384602,
        "Longitude": -94.421303,
        "WebLink": "http://uafs.edu/upd",
        "LastUploadTime": "/Date(1608552051200)/",
        "ZipCodes": [
            {
                "Id": 604,
                "AgencyId": 27,
                "ZipCode": "72913"
            },
            {
                "Id": 605,
                "AgencyId": 27,
                "ZipCode": "72903"
            },
            {
                "Id": 606,
                "AgencyId": 27,
                "ZipCode": "72901"
            }
        ],
        "DefaultUnmappedIncidentsLatitude": 35.384602,
        "DefaultUnmappedIncidentsLongitude": -94.421303,
        "DefaultRange": null,
        "DefaultViewType": 0
    },
    {
        "Id": 19,
        "Name": "University of California - Santa Barbara",
        "DisplayingName": "CA - University of California - Santa Barbara",
        "IsSelected": false,
        "IsMunicipal": false,
        "Latitude": 34.413962,
        "Longitude": -119.848947,
        "WebLink": "http://http:\\\\police.ucsb.edu",
        "LastUploadTime": "/Date(1621452646077)/",
        "ZipCodes": [
            {
                "Id": 552,
                "AgencyId": 19,
                "ZipCode": "93117"
            },
            {
                "Id": 553,
                "AgencyId": 19,
                "ZipCode": "93460"
            },
            {
                "Id": 554,
                "AgencyId": 19,
                "ZipCode": "93106"
            }
        ],
        "DefaultUnmappedIncidentsLatitude": 34.413962,
        "DefaultUnmappedIncidentsLongitude": -119.848947,
        "DefaultRange": null,
        "DefaultViewType": 0
    },
    {
        "Id": 60,
        "Name": "University of Dayton",
        "DisplayingName": "OH - University of Dayton",
        "IsSelected": false,
        "IsMunicipal": false,
        "Latitude": 39.738466,
        "Longitude": -84.182481,
        "WebLink": null,
        "LastUploadTime": "/Date(1622170832137)/",
        "ZipCodes": [
            {
                "Id": 861,
                "AgencyId": 60,
                "ZipCode": "45469-2810"
            },
            {
                "Id": 862,
                "AgencyId": 60,
                "ZipCode": "45456"
            },
            {
                "Id": 863,
                "AgencyId": 60,
                "ZipCode": "45409"
            },
            {
                "Id": 864,
                "AgencyId": 60,
                "ZipCode": "43017"
            },
            {
                "Id": 865,
                "AgencyId": 60,
                "ZipCode": "45410"
            },
            {
                "Id": 866,
                "AgencyId": 60,
                "ZipCode": "45469"
            }
        ],
        "DefaultUnmappedIncidentsLatitude": 39.739235,
        "DefaultUnmappedIncidentsLongitude": -84.178168,
        "DefaultRange": null,
        "DefaultViewType": 0
    },
    {
        "Id": 102,
        "Name": "University of Denver",
        "DisplayingName": "CO - DU",
        "IsSelected": false,
        "IsMunicipal": false,
        "Latitude": 39.67804,
        "Longitude": -104.964209,
        "WebLink": "http://www.du.edu/campussafety/reports",
        "LastUploadTime": "/Date(1622188801277)/",
        "ZipCodes": [
            {
                "Id": 1021,
                "AgencyId": 102,
                "ZipCode": "80208"
            },
            {
                "Id": 1040,
                "AgencyId": 102,
                "ZipCode": "80210"
            }
        ],
        "DefaultUnmappedIncidentsLatitude": 39.677115,
        "DefaultUnmappedIncidentsLongitude": -104.962665,
        "DefaultRange": null,
        "DefaultViewType": 0
    },
    {
        "Id": 105,
        "Name": "University of Denver",
        "DisplayingName": "CO - University of Denver",
        "IsSelected": false,
        "IsMunicipal": false,
        "Latitude": 39.676617,
        "Longitude": -104.961896,
        "WebLink": null,
        "LastUploadTime": null,
        "ZipCodes": [],
        "DefaultUnmappedIncidentsLatitude": null,
        "DefaultUnmappedIncidentsLongitude": null,
        "DefaultRange": 60,
        "DefaultViewType": 0
    },
    {
        "Id": 17,
        "Name": "University of Houston",
        "DisplayingName": "TX - University of Houston",
        "IsSelected": false,
        "IsMunicipal": false,
        "Latitude": 29.76045,
        "Longitude": -95.369784,
        "WebLink": "http://www.uh.edu/police",
        "LastUploadTime": "/Date(1622178065287)/",
        "ZipCodes": [
            {
                "Id": 512,
                "AgencyId": 17,
                "ZipCode": "77101"
            },
            {
                "Id": 513,
                "AgencyId": 17,
                "ZipCode": "77581"
            },
            {
                "Id": 514,
                "AgencyId": 17,
                "ZipCode": "77023-4639"
            },
            {
                "Id": 515,
                "AgencyId": 17,
                "ZipCode": "77002"
            },
            {
                "Id": 516,
                "AgencyId": 17,
                "ZipCode": "77087"
            },
            {
                "Id": 517,
                "AgencyId": 17,
                "ZipCode": "77002-3202"
            },
            {
                "Id": 518,
                "AgencyId": 17,
                "ZipCode": "77204-6023"
            },
            {
                "Id": 519,
                "AgencyId": 17,
                "ZipCode": "77204"
            },
            {
                "Id": 520,
                "AgencyId": 17,
                "ZipCode": "77007"
            },
            {
                "Id": 521,
                "AgencyId": 17,
                "ZipCode": "75219"
            },
            {
                "Id": 522,
                "AgencyId": 17,
                "ZipCode": "77005-1892"
            },
            {
                "Id": 523,
                "AgencyId": 17,
                "ZipCode": "77006"
            },
            {
                "Id": 524,
                "AgencyId": 17,
                "ZipCode": "77082"
            },
            {
                "Id": 525,
                "AgencyId": 17,
                "ZipCode": "77021"
            },
            {
                "Id": 526,
                "AgencyId": 17,
                "ZipCode": "77004-6886"
            },
            {
                "Id": 527,
                "AgencyId": 17,
                "ZipCode": "77004"
            },
            {
                "Id": 528,
                "AgencyId": 17,
                "ZipCode": "77054"
            },
            {
                "Id": 529,
                "AgencyId": 17,
                "ZipCode": "77030"
            },
            {
                "Id": 530,
                "AgencyId": 17,
                "ZipCode": "77023"
            },
            {
                "Id": 531,
                "AgencyId": 17,
                "ZipCode": "77901"
            },
            {
                "Id": 532,
                "AgencyId": 17,
                "ZipCode": "77070"
            },
            {
                "Id": 533,
                "AgencyId": 17,
                "ZipCode": "77749"
            },
            {
                "Id": 534,
                "AgencyId": 17,
                "ZipCode": "77479"
            },
            {
                "Id": 535,
                "AgencyId": 17,
                "ZipCode": "77003"
            },
            {
                "Id": 536,
                "AgencyId": 17,
                "ZipCode": "77450"
            },
            {
                "Id": 537,
                "AgencyId": 17,
                "ZipCode": "77204-6019"
            },
            {
                "Id": 538,
                "AgencyId": 17,
                "ZipCode": "77200"
            },
            {
                "Id": 539,
                "AgencyId": 17,
                "ZipCode": "77204-6191"
            },
            {
                "Id": 540,
                "AgencyId": 17,
                "ZipCode": "77047"
            }
        ],
        "DefaultUnmappedIncidentsLatitude": 29.76045,
        "DefaultUnmappedIncidentsLongitude": -95.369784,
        "DefaultRange": null,
        "DefaultViewType": 0
    },
    {
        "Id": 51,
        "Name": "University of Houston Downtown",
        "DisplayingName": "TX - University of Houston Downtown",
        "IsSelected": false,
        "IsMunicipal": false,
        "Latitude": 29.643524,
        "Longitude": -95.472531,
        "WebLink": null,
        "LastUploadTime": "/Date(1602054162170)/",
        "ZipCodes": [
            {
                "Id": 751,
                "AgencyId": 51,
                "ZipCode": "77003"
            },
            {
                "Id": 752,
                "AgencyId": 51,
                "ZipCode": "77002"
            },
            {
                "Id": 753,
                "AgencyId": 51,
                "ZipCode": "77021"
            },
            {
                "Id": 754,
                "AgencyId": 51,
                "ZipCode": "77007"
            },
            {
                "Id": 755,
                "AgencyId": 51,
                "ZipCode": "77009"
            },
            {
                "Id": 756,
                "AgencyId": 51,
                "ZipCode": "77092"
            }
        ],
        "DefaultUnmappedIncidentsLatitude": 29.643524,
        "DefaultUnmappedIncidentsLongitude": -95.472531,
        "DefaultRange": null,
        "DefaultViewType": 0
    },
    {
        "Id": 67,
        "Name": "University of Maryland - Eastern Shore",
        "DisplayingName": "MD - University of Maryland - Eastern Shore",
        "IsSelected": false,
        "IsMunicipal": false,
        "Latitude": 38.209127,
        "Longitude": -75.690243,
        "WebLink": null,
        "LastUploadTime": null,
        "ZipCodes": [
            {
                "Id": 942,
                "AgencyId": 67,
                "ZipCode": "21853"
            }
        ],
        "DefaultUnmappedIncidentsLatitude": null,
        "DefaultUnmappedIncidentsLongitude": null,
        "DefaultRange": null,
        "DefaultViewType": 0
    },
    {
        "Id": 10,
        "Name": "University of Mississippi",
        "DisplayingName": "MS - University of Mississippi",
        "IsSelected": false,
        "IsMunicipal": false,
        "Latitude": 34.36997,
        "Longitude": -89.530205,
        "WebLink": "http://www.olemiss.edu/police",
        "LastUploadTime": "/Date(1622203239847)/",
        "ZipCodes": [
            {
                "Id": 453,
                "AgencyId": 10,
                "ZipCode": "38601"
            },
            {
                "Id": 454,
                "AgencyId": 10,
                "ZipCode": "38655"
            },
            {
                "Id": 455,
                "AgencyId": 10,
                "ZipCode": "38677"
            },
            {
                "Id": 456,
                "AgencyId": 10,
                "ZipCode": "38677-1848"
            }
        ],
        "DefaultUnmappedIncidentsLatitude": 34.367847,
        "DefaultUnmappedIncidentsLongitude": -89.540991,
        "DefaultRange": null,
        "DefaultViewType": 0
    },
    {
        "Id": 52,
        "Name": "University of Mississippi Medical Center",
        "DisplayingName": "MS - University of Mississippi Medical Center",
        "IsSelected": false,
        "IsMunicipal": false,
        "Latitude": 32.330399,
        "Longitude": -90.17034,
        "WebLink": "http://www.umc.edu/police/",
        "LastUploadTime": "/Date(1622185242053)/",
        "ZipCodes": [
            {
                "Id": 757,
                "AgencyId": 52,
                "ZipCode": "39040"
            },
            {
                "Id": 758,
                "AgencyId": 52,
                "ZipCode": "39232"
            },
            {
                "Id": 759,
                "AgencyId": 52,
                "ZipCode": "39202"
            },
            {
                "Id": 760,
                "AgencyId": 52,
                "ZipCode": "39211"
            },
            {
                "Id": 1003,
                "AgencyId": 52,
                "ZipCode": "89103"
            }
        ],
        "DefaultUnmappedIncidentsLatitude": 32.330399,
        "DefaultUnmappedIncidentsLongitude": -90.17034,
        "DefaultRange": null,
        "DefaultViewType": 0
    },
    {
        "Id": 65,
        "Name": "University of Missouri -  Kansas City",
        "DisplayingName": "MO - UMKCPD",
        "IsSelected": false,
        "IsMunicipal": false,
        "Latitude": 39.036009,
        "Longitude": -94.582604,
        "WebLink": "http://www.umkc.edu/finadmin/police/",
        "LastUploadTime": "/Date(1622185250493)/",
        "ZipCodes": [
            {
                "Id": 937,
                "AgencyId": 65,
                "ZipCode": "64112"
            },
            {
                "Id": 938,
                "AgencyId": 65,
                "ZipCode": "64110"
            },
            {
                "Id": 939,
                "AgencyId": 65,
                "ZipCode": "64108"
            }
        ],
        "DefaultUnmappedIncidentsLatitude": 39.033586,
        "DefaultUnmappedIncidentsLongitude": -94.576063,
        "DefaultRange": null,
        "DefaultViewType": 0
    },
    {
        "Id": 64,
        "Name": "University of North Georgia",
        "DisplayingName": "GA - University of North Georgia",
        "IsSelected": false,
        "IsMunicipal": false,
        "Latitude": 34.528778,
        "Longitude": -83.984346,
        "WebLink": null,
        "LastUploadTime": "/Date(1622181642883)/",
        "ZipCodes": [
            {
                "Id": 941,
                "AgencyId": 64,
                "ZipCode": "30597"
            }
        ],
        "DefaultUnmappedIncidentsLatitude": 34.530349,
        "DefaultUnmappedIncidentsLongitude": -83.985795,
        "DefaultRange": null,
        "DefaultViewType": 1
    },
    {
        "Id": 58,
        "Name": "University of Oklahoma",
        "DisplayingName": "OK - Oklahoma University Police",
        "IsSelected": false,
        "IsMunicipal": false,
        "Latitude": 35.189828,
        "Longitude": -97.435045,
        "WebLink": "http://www.ou.edu/content/police.html/ ",
        "LastUploadTime": "/Date(1622196032513)/",
        "ZipCodes": [
            {
                "Id": 836,
                "AgencyId": 58,
                "ZipCode": "73019"
            },
            {
                "Id": 840,
                "AgencyId": 58,
                "ZipCode": "73071"
            },
            {
                "Id": 841,
                "AgencyId": 58,
                "ZipCode": "73072"
            },
            {
                "Id": 842,
                "AgencyId": 58,
                "ZipCode": "73069-6097"
            },
            {
                "Id": 846,
                "AgencyId": 58,
                "ZipCode": "73069"
            },
            {
                "Id": 847,
                "AgencyId": 58,
                "ZipCode": "73080"
            },
            {
                "Id": 1004,
                "AgencyId": 58,
                "ZipCode": "73026"
            },
            {
                "Id": 1005,
                "AgencyId": 58,
                "ZipCode": "73070"
            }
        ],
        "DefaultUnmappedIncidentsLatitude": 35.209006,
        "DefaultUnmappedIncidentsLongitude": -97.445694,
        "DefaultRange": 60,
        "DefaultViewType": 1
    },
    {
        "Id": 50,
        "Name": "University of Pittsburgh",
        "DisplayingName": "PA - University of Pittsburgh",
        "IsSelected": false,
        "IsMunicipal": false,
        "Latitude": 40.44427,
        "Longitude": -79.95329,
        "WebLink": "http://police.pitt.edu",
        "LastUploadTime": "/Date(1622196042380)/",
        "ZipCodes": [
            {
                "Id": 738,
                "AgencyId": 50,
                "ZipCode": "15224"
            },
            {
                "Id": 739,
                "AgencyId": 50,
                "ZipCode": "15260"
            },
            {
                "Id": 740,
                "AgencyId": 50,
                "ZipCode": "15203"
            },
            {
                "Id": 741,
                "AgencyId": 50,
                "ZipCode": "15214"
            },
            {
                "Id": 742,
                "AgencyId": 50,
                "ZipCode": "15208"
            },
            {
                "Id": 743,
                "AgencyId": 50,
                "ZipCode": "15232"
            },
            {
                "Id": 744,
                "AgencyId": 50,
                "ZipCode": "15212"
            },
            {
                "Id": 745,
                "AgencyId": 50,
                "ZipCode": "15261"
            },
            {
                "Id": 746,
                "AgencyId": 50,
                "ZipCode": "15213"
            },
            {
                "Id": 747,
                "AgencyId": 50,
                "ZipCode": "15222"
            },
            {
                "Id": 748,
                "AgencyId": 50,
                "ZipCode": "15238"
            },
            {
                "Id": 749,
                "AgencyId": 50,
                "ZipCode": "15219"
            },
            {
                "Id": 750,
                "AgencyId": 50,
                "ZipCode": "15601"
            }
        ],
        "DefaultUnmappedIncidentsLatitude": 40.44427,
        "DefaultUnmappedIncidentsLongitude": -79.95329,
        "DefaultRange": null,
        "DefaultViewType": 0
    },
    {
        "Id": 39,
        "Name": "University of San Francisco",
        "DisplayingName": "CA - University of San Francisco",
        "IsSelected": false,
        "IsMunicipal": false,
        "Latitude": 37.777119,
        "Longitude": -122.41964,
        "WebLink": "http://www.usfca.edu/public_safety",
        "LastUploadTime": "/Date(1593680435727)/",
        "ZipCodes": [
            {
                "Id": 643,
                "AgencyId": 39,
                "ZipCode": "94117"
            }
        ],
        "DefaultUnmappedIncidentsLatitude": 37.777119,
        "DefaultUnmappedIncidentsLongitude": -122.41964,
        "DefaultRange": null,
        "DefaultViewType": 0
    },
    {
        "Id": 43,
        "Name": "University of Southern Mississippi",
        "DisplayingName": "MS - University of Southern Mississippi",
        "IsSelected": false,
        "IsMunicipal": false,
        "Latitude": 31.327351,
        "Longitude": -89.29071,
        "WebLink": "http://www.usm.edu/police",
        "LastUploadTime": "/Date(1608552047933)/",
        "ZipCodes": [
            {
                "Id": 706,
                "AgencyId": 43,
                "ZipCode": "39564"
            },
            {
                "Id": 707,
                "AgencyId": 43,
                "ZipCode": "39406"
            },
            {
                "Id": 708,
                "AgencyId": 43,
                "ZipCode": "39401"
            },
            {
                "Id": 709,
                "AgencyId": 43,
                "ZipCode": "39503"
            },
            {
                "Id": 710,
                "AgencyId": 43,
                "ZipCode": "39402"
            },
            {
                "Id": 711,
                "AgencyId": 43,
                "ZipCode": "39530-4710"
            },
            {
                "Id": 712,
                "AgencyId": 43,
                "ZipCode": "39560"
            },
            {
                "Id": 713,
                "AgencyId": 43,
                "ZipCode": "30406"
            },
            {
                "Id": 714,
                "AgencyId": 43,
                "ZipCode": "39475"
            }
        ],
        "DefaultUnmappedIncidentsLatitude": 31.327351,
        "DefaultUnmappedIncidentsLongitude": -89.29071,
        "DefaultRange": null,
        "DefaultViewType": 0
    },
    {
        "Id": 42,
        "Name": "University of Texas - Health Science Center - San Antonio",
        "DisplayingName": "TX - University of Texas System Police - Health Science Center San Antonio",
        "IsSelected": false,
        "IsMunicipal": false,
        "Latitude": 29.42458,
        "Longitude": -98.494614,
        "WebLink": "http://www.uthscsa.edu/police/home",
        "LastUploadTime": "/Date(1622192449647)/",
        "ZipCodes": [
            {
                "Id": 649,
                "AgencyId": 42,
                "ZipCode": "78227"
            },
            {
                "Id": 650,
                "AgencyId": 42,
                "ZipCode": "78237"
            },
            {
                "Id": 651,
                "AgencyId": 42,
                "ZipCode": "78026"
            },
            {
                "Id": 652,
                "AgencyId": 42,
                "ZipCode": "79902"
            },
            {
                "Id": 653,
                "AgencyId": 42,
                "ZipCode": "78207"
            },
            {
                "Id": 654,
                "AgencyId": 42,
                "ZipCode": "78219"
            },
            {
                "Id": 655,
                "AgencyId": 42,
                "ZipCode": "78209"
            },
            {
                "Id": 656,
                "AgencyId": 42,
                "ZipCode": "78521"
            },
            {
                "Id": 657,
                "AgencyId": 42,
                "ZipCode": "78404"
            },
            {
                "Id": 658,
                "AgencyId": 42,
                "ZipCode": "78044"
            },
            {
                "Id": 659,
                "AgencyId": 42,
                "ZipCode": "89550"
            },
            {
                "Id": 660,
                "AgencyId": 42,
                "ZipCode": "78222"
            },
            {
                "Id": 661,
                "AgencyId": 42,
                "ZipCode": "78405"
            },
            {
                "Id": 662,
                "AgencyId": 42,
                "ZipCode": "78756"
            },
            {
                "Id": 663,
                "AgencyId": 42,
                "ZipCode": "78040"
            },
            {
                "Id": 664,
                "AgencyId": 42,
                "ZipCode": "78212"
            },
            {
                "Id": 665,
                "AgencyId": 42,
                "ZipCode": "78258"
            },
            {
                "Id": 666,
                "AgencyId": 42,
                "ZipCode": "78232"
            },
            {
                "Id": 667,
                "AgencyId": 42,
                "ZipCode": "78203"
            },
            {
                "Id": 668,
                "AgencyId": 42,
                "ZipCode": "78284"
            },
            {
                "Id": 669,
                "AgencyId": 42,
                "ZipCode": "78247"
            },
            {
                "Id": 670,
                "AgencyId": 42,
                "ZipCode": "78550"
            },
            {
                "Id": 671,
                "AgencyId": 42,
                "ZipCode": "78234"
            },
            {
                "Id": 672,
                "AgencyId": 42,
                "ZipCode": "78702"
            },
            {
                "Id": 673,
                "AgencyId": 42,
                "ZipCode": "78236"
            },
            {
                "Id": 674,
                "AgencyId": 42,
                "ZipCode": "78701"
            },
            {
                "Id": 675,
                "AgencyId": 42,
                "ZipCode": "78503"
            },
            {
                "Id": 676,
                "AgencyId": 42,
                "ZipCode": "78205"
            },
            {
                "Id": 677,
                "AgencyId": 42,
                "ZipCode": "77901"
            },
            {
                "Id": 678,
                "AgencyId": 42,
                "ZipCode": "78216"
            },
            {
                "Id": 679,
                "AgencyId": 42,
                "ZipCode": "78249"
            },
            {
                "Id": 680,
                "AgencyId": 42,
                "ZipCode": "78411"
            },
            {
                "Id": 681,
                "AgencyId": 42,
                "ZipCode": "78112"
            },
            {
                "Id": 682,
                "AgencyId": 42,
                "ZipCode": "78250"
            },
            {
                "Id": 683,
                "AgencyId": 42,
                "ZipCode": "78217"
            },
            {
                "Id": 684,
                "AgencyId": 42,
                "ZipCode": "29229"
            },
            {
                "Id": 685,
                "AgencyId": 42,
                "ZipCode": "78229"
            },
            {
                "Id": 686,
                "AgencyId": 42,
                "ZipCode": "75210"
            },
            {
                "Id": 687,
                "AgencyId": 42,
                "ZipCode": "78251"
            },
            {
                "Id": 688,
                "AgencyId": 42,
                "ZipCode": "78757"
            },
            {
                "Id": 689,
                "AgencyId": 42,
                "ZipCode": "78245"
            },
            {
                "Id": 690,
                "AgencyId": 42,
                "ZipCode": "75235"
            },
            {
                "Id": 691,
                "AgencyId": 42,
                "ZipCode": "78041"
            },
            {
                "Id": 692,
                "AgencyId": 42,
                "ZipCode": "78252"
            },
            {
                "Id": 693,
                "AgencyId": 42,
                "ZipCode": "78852"
            },
            {
                "Id": 694,
                "AgencyId": 42,
                "ZipCode": "78238"
            },
            {
                "Id": 695,
                "AgencyId": 42,
                "ZipCode": "78223"
            },
            {
                "Id": 696,
                "AgencyId": 42,
                "ZipCode": "78015"
            },
            {
                "Id": 697,
                "AgencyId": 42,
                "ZipCode": "78228"
            },
            {
                "Id": 698,
                "AgencyId": 42,
                "ZipCode": "78210"
            },
            {
                "Id": 699,
                "AgencyId": 42,
                "ZipCode": "78840"
            },
            {
                "Id": 700,
                "AgencyId": 42,
                "ZipCode": "78230"
            },
            {
                "Id": 701,
                "AgencyId": 42,
                "ZipCode": "78130"
            },
            {
                "Id": 702,
                "AgencyId": 42,
                "ZipCode": "78201"
            },
            {
                "Id": 703,
                "AgencyId": 42,
                "ZipCode": "78229-3900"
            },
            {
                "Id": 704,
                "AgencyId": 42,
                "ZipCode": "78240"
            },
            {
                "Id": 705,
                "AgencyId": 42,
                "ZipCode": "78539"
            }
        ],
        "DefaultUnmappedIncidentsLatitude": 29.505546,
        "DefaultUnmappedIncidentsLongitude": -98.577064,
        "DefaultRange": 90,
        "DefaultViewType": 0
    },
    {
        "Id": 109,
        "Name": "University of Texas at San Antonio",
        "DisplayingName": "TX - University of Texas at San Antonio",
        "IsSelected": false,
        "IsMunicipal": false,
        "Latitude": 29.58445,
        "Longitude": -98.617133,
        "WebLink": "http://www.utsa.edu/publicsafety/pd/",
        "LastUploadTime": "/Date(1622199656547)/",
        "ZipCodes": [
            {
                "Id": 1035,
                "AgencyId": 109,
                "ZipCode": "78249"
            },
            {
                "Id": 1036,
                "AgencyId": 109,
                "ZipCode": "78207"
            },
            {
                "Id": 1037,
                "AgencyId": 109,
                "ZipCode": "78205"
            }
        ],
        "DefaultUnmappedIncidentsLatitude": 29.58275,
        "DefaultUnmappedIncidentsLongitude": -98.618946,
        "DefaultRange": 75,
        "DefaultViewType": 0
    },
    {
        "Id": 96,
        "Name": "Waveland Police Department",
        "DisplayingName": "MS - Waveland PD",
        "IsSelected": false,
        "IsMunicipal": true,
        "Latitude": 30.298372,
        "Longitude": -89.375956,
        "WebLink": "http://www.wavelandpolice.com",
        "LastUploadTime": "/Date(1622185201157)/",
        "ZipCodes": [
            {
                "Id": 1010,
                "AgencyId": 96,
                "ZipCode": "39576"
            }
        ],
        "DefaultUnmappedIncidentsLatitude": 30.285487,
        "DefaultUnmappedIncidentsLongitude": -89.380101,
        "DefaultRange": 30,
        "DefaultViewType": 0
    },
    {
        "Id": 121,
        "Name": "WENTWORTH INSTITUTE OF TECHNOLOGY POLICE DEPARTMENT",
        "DisplayingName": "MA - Wentworth Institute Police Department",
        "IsSelected": false,
        "IsMunicipal": false,
        "Latitude": 42.336687,
        "Longitude": -71.095761,
        "WebLink": null,
        "LastUploadTime": "/Date(1622196058030)/",
        "ZipCodes": [
            {
                "Id": 1043,
                "AgencyId": 121,
                "ZipCode": "02115"
            }
        ],
        "DefaultUnmappedIncidentsLatitude": 42.335995,
        "DefaultUnmappedIncidentsLongitude": -71.095367,
        "DefaultRange": 60,
        "DefaultViewType": 0
    },
    {
        "Id": 78,
        "Name": "West Texas A&M University",
        "DisplayingName": "TX - West Texas A&M University",
        "IsSelected": false,
        "IsMunicipal": false,
        "Latitude": 34.980334,
        "Longitude": -101.918802,
        "WebLink": "http://www.wtamu.edu/police",
        "LastUploadTime": "/Date(1622185212643)/",
        "ZipCodes": [
            {
                "Id": 967,
                "AgencyId": 78,
                "ZipCode": "79016"
            },
            {
                "Id": 970,
                "AgencyId": 78,
                "ZipCode": "79015"
            }
        ],
        "DefaultUnmappedIncidentsLatitude": 35.128183,
        "DefaultUnmappedIncidentsLongitude": -101.815968,
        "DefaultRange": 60,
        "DefaultViewType": 0
    },
    {
        "Id": 31,
        "Name": "Western New England University",
        "DisplayingName": "MA - Western New England University ",
        "IsSelected": false,
        "IsMunicipal": false,
        "Latitude": 42.10125,
        "Longitude": -72.589287,
        "WebLink": "http://www.wne.edu",
        "LastUploadTime": "/Date(1622199651693)/",
        "ZipCodes": [
            {
                "Id": 612,
                "AgencyId": 31,
                "ZipCode": "02452"
            },
            {
                "Id": 613,
                "AgencyId": 31,
                "ZipCode": "01119"
            }
        ],
        "DefaultUnmappedIncidentsLatitude": 42.10125,
        "DefaultUnmappedIncidentsLongitude": -72.589287,
        "DefaultRange": null,
        "DefaultViewType": 0
    },
    {
        "Id": 119,
        "Name": "Widener University",
        "DisplayingName": "PA - Widener University",
        "IsSelected": false,
        "IsMunicipal": false,
        "Latitude": 39.861607,
        "Longitude": -75.357702,
        "WebLink": null,
        "LastUploadTime": "/Date(1622181606500)/",
        "ZipCodes": [
            {
                "Id": 1042,
                "AgencyId": 119,
                "ZipCode": "19013"
            }
        ],
        "DefaultUnmappedIncidentsLatitude": 39.861667,
        "DefaultUnmappedIncidentsLongitude": -75.355386,
        "DefaultRange": 60,
        "DefaultViewType": 0
    },
    {
        "Id": 26,
        "Name": "Wiggins Police Department",
        "DisplayingName": "MS - Wiggins Police Department",
        "IsSelected": false,
        "IsMunicipal": true,
        "Latitude": 30.85911,
        "Longitude": -89.138962,
        "WebLink": null,
        "LastUploadTime": "/Date(1622196263933)/",
        "ZipCodes": [
            {
                "Id": 603,
                "AgencyId": 26,
                "ZipCode": "39577"
            }
        ],
        "DefaultUnmappedIncidentsLatitude": 30.856442,
        "DefaultUnmappedIncidentsLongitude": -89.137573,
        "DefaultRange": null,
        "DefaultViewType": 0
    },
    {
        "Id": 47,
        "Name": "Youngstown State University",
        "DisplayingName": "OH - Youngstown State University",
        "IsSelected": false,
        "IsMunicipal": false,
        "Latitude": 41.107003,
        "Longitude": -80.646809,
        "WebLink": "http://www.ysu.edu/police",
        "LastUploadTime": "/Date(1622199632673)/",
        "ZipCodes": [
            {
                "Id": 721,
                "AgencyId": 47,
                "ZipCode": "44555"
            },
            {
                "Id": 722,
                "AgencyId": 47,
                "ZipCode": "44504"
            },
            {
                "Id": 723,
                "AgencyId": 47,
                "ZipCode": "44503"
            },
            {
                "Id": 724,
                "AgencyId": 47,
                "ZipCode": "44501"
            },
            {
                "Id": 725,
                "AgencyId": 47,
                "ZipCode": "44502"
            },
            {
                "Id": 726,
                "AgencyId": 47,
                "ZipCode": "44505"
            }
        ],
        "DefaultUnmappedIncidentsLatitude": 41.107003,
        "DefaultUnmappedIncidentsLongitude": -80.646809,
        "DefaultRange": null,
        "DefaultViewType": 0
    }
]